Price,Address,Zip,Area,Room,Lon,Lat
425000.0,"Lamarckhof 11 I, Amsterdam",1098 TK,68,3,4.944251,52.352317
520000.0,"Kiefskamp 24, Amsterdam",1082 KA,80,2,4.872336,52.33033
700000.0,"Latherusstraat 54, Amsterdam",1032 EC,123,6,4.91506,52.393449
295000.0,"1e Kekerstraat 119, Amsterdam",1104 VA,91,3,4.981371,52.313749
650000.0,"Nieuwevaartweg, Amsterdam",1019 AL,87,4,4.95437552819149,52.3679823
275000.0,"Tefelenstraat 82, Amsterdam",1107 SM,111,5,4.970438,52.294244
549001.0,"Lange Stammerdijk 1 G, Amsterdam",1109 BK,107,4,5.016522,52.305075
350000.0,"Bruinvisstraat 36, Amsterdam",1035 HG,89,3,4.88516,52.423543
485000.0,"Admiraliteitstraat 48, Amsterdam",1018 KP,73,4,4.924634,52.368555
540000.0,"Sloterkade 152 1, Amsterdam",1058 HN,69,3,4.851985,52.351244
485000.0,"Vrolikstraat 292 1, Amsterdam",1092 VA,59,3,4.925675,52.358255
,"Haarlemmerweg 705, Amsterdam",1067 HP,366,12,4.787874,52.383877
500000.0,"Aurikelstraat 5, Amsterdam",1032 AP,83,4,4.917034,52.395677
995000.0,"Eerste Jacob van Campenstraat 54 III-IV, Amsterdam",1072 BH,127,4,4.889858,52.357323
275000.0,"Brouwersgracht 172 A, Amsterdam",1013 HB,31,2,4.888065,52.381025
525000.0,"Dirk Vreekenstraat 72, Amsterdam",1019 GD,92,3,4.936101,52.371484
899000.0,"Termietergouw 6 A, Amsterdam",1027 AD,128,5,4.960756,52.409584
250000.0,"Bernard Shawsingel 250, Amsterdam",1102 VE,60,3,4.945909,52.320409
325000.0,"Dusartstraat 33 2, Amsterdam",1072 HN,37,2,4.889539,52.351732
687500.0,"Amstelveenseweg 184 III, Amsterdam",1075 XR,86,4,4.855875,52.352448
400000.0,"Johan Herman Doornstraat 26, Amsterdam",1063 ED,78,3,4.832758,52.384105
895000.0,"Termietergouw 6, Amsterdam",1027 AD,95,3,4.960756,52.409584
1775000.0,"Valeriusstraat 148 Hs, Amsterdam",1075 GE,177,9,4.865595,52.353408
1150000.0,"Singel 115 B, Amsterdam",1012 VH,162,5,4.890591,52.375342
325000.0,"Leerdamhof 177, Amsterdam",1108 BR,85,4,4.976098,52.308383
675000.0,"Stadhouderskade 153 A, Amsterdam",1074 BC,93,4,4.902853,52.358348
650000.0,"Maarten Jansz. Kosterstraat 10, Amsterdam",1017 VX,67,4,4.901713,52.360545
325000.0,"Loggerhof 149, Amsterdam",1034 CG,76,3,4.910084,52.406722
395000.0,"Czaar Peterstraat 45 B, Amsterdam",1018 PA,69,3,4.927419,52.369015
265000.0,"Kloekhorststraat 215, Amsterdam",1104 MN,72,3,4.9684,52.317292
575000.0,"Marskramerstraat 124, Amsterdam",1033 WG,183,5,4.881542,52.41986
1099000.0,"Stadionweg 140 3, Amsterdam",1077 SX,191,6,4.874975,52.346978
395000.0,"Jan van Riebeekstraat 17 3, Amsterdam",1057 ZW,54,3,4.857567,52.370557
550000.0,"Karel Doormanstraat 138, Amsterdam",1055 VJ,102,4,4.858163,52.379474
265000.0,"Groenhoven 430, Amsterdam",1103 LM,109,5,4.976731,52.325525
540000.0,"Faas Wilkesstraat 357, Amsterdam",1095 MD,94,3,4.969506,52.372583
850000.0,"Witte de Withstraat 20 AH, Amsterdam",1057 XW,149,7,4.859626,52.365326
250000.0,"Marnixkade 89 1A, Amsterdam",1015 ZH,28,1,4.877315,52.376658
600000.0,"Hasebroekstraat 41 H, Amsterdam",1053 CM,80,2,4.865609,52.365991
475000.0,"Wilhelminastraat 81 I, Amsterdam",1054 VX,54,2,4.863781,52.361606
525000.0,"Le Tourmalet 8, Amsterdam",1060 NX,138,5,4.774348,52.350823
425000.0,"Egelantiersstraat 142 B, Amsterdam",1015 PS,67,3,4.881551,52.376576
550000.0,"Baron G.A. Tindalplein 10, Amsterdam",1019 TJ,87,2,4.942751,52.373127
400000.0,"Donker Curtiusstraat 49, Amsterdam",1051 MC,59,2,4.871359,52.378707
230000.0,"Boeninlaan 81, Amsterdam",1102 TH,60,2,4.942778,52.320576
500000.0,"Zeeburgerdijk 578, Amsterdam",1095 AN,86,4,4.944196,52.366168
539000.0,"Van Speijkstraat 138 3, Amsterdam",1057 HJ,75,3,4.860239,52.370632
600000.0,"IJburglaan 1445, Amsterdam",1087 KH,132,4,5.00033,52.35282
825000.0,"Langestraat 96, Amsterdam",1015 AM,98,4,4.890594,52.376848
350000.0,"Celebesstraat 112 A, Amsterdam",1094 EZ,65,2,4.935377,52.358917
1095000.0,"Jacob van Lennepstraat 11 I/ II, Amsterdam",1053 HA,204,6,4.876183,52.366972
1300000.0,"Lauriergracht 89, Amsterdam",1016 RJ,139,5,4.879252,52.370823
590000.0,"Da Costakade 32 II, Amsterdam",1053 WL,80,2,4.871555,52.371041
975000.0,"Willem Augustinstraat 179, Amsterdam",1061 MJ,221,5,4.838629,52.37491
1050000.0,"Faas Wilkesstraat 275, Amsterdam",1095 MD,154,4,4.968819,52.373001
325000.0,"Marcantilaan 123, Amsterdam",1051 LW,41,2,4.867459,52.375562
500000.0,"Joop Gerritzestraat 14, Amsterdam",1063 EK,113,6,4.830151,52.383526
450000.0,"Wittgensteinlaan 137, Amsterdam",1062 KC,92,3,4.835487,52.353658
585000.0,"Karel Klinkenbergstraat 1 A, Amsterdam",1061 AH,99,3,4.835845,52.366451
549000.0,"Magnoliastraat 10, Amsterdam",1031 VD,101,4,4.907913,52.388684
485000.0,"Linnaeusparkweg 224 HS, Amsterdam",1098 ER,65,3,4.940682,52.349698
325000.0,"Ruimzicht 40, Amsterdam",1068 CM,88,4,4.806863,52.362205
685000.0,"Rustenburgerstraat 398 H, Amsterdam",1072 HH,78,3,4.890731,52.351449
400000.0,"Bilderdijkstraat 180 II, Amsterdam",1053 LD,49,2,4.872222,52.366766
225000.0,"Boris Pasternakstraat 427, Amsterdam",1102 TD,43,2,4.943668,52.317544
395000.0,"Elandsgracht 84 2, Amsterdam",1016 TZ,42,2,4.880279,52.369659
450000.0,"Van Rappardstraat 41 H, Amsterdam",1051 HX,73,3,4.869487,52.378402
850000.0,"Zaaiersweg 11 A, Amsterdam",1097 SM,109,4,4.944774,52.343782
325000.0,"Groetstraat 207, Amsterdam",1024 VG,77,4,4.95118,52.394073
390000.0,"Hudsonstraat 45 II, Amsterdam",1057 RX,58,2,4.853953,52.365813
550000.0,"Keizersgracht 306 1 V, Amsterdam",1016 EX,57,2,4.884292,52.370557
2325000.0,"Amstel 102, Amsterdam",1017 AD,150,6,4.896842,52.366965
525000.0,"Winthontstraat 28, Amsterdam",1013 BR,69,3,4.892282,52.384356
450000.0,"Klaprozenweg 49 B 2 +PP, Amsterdam",1032 KK,74,2,4.904136,52.399475
375000.0,"Hugo de Grootkade 78 2, Amsterdam",1052 LX,54,2,4.870127,52.372608
1698000.0,"Valeriusstraat 193, Amsterdam",1075 EW,205,5,4.860637,52.351894
325000.0,"Van Spilbergenstraat 7 2, Amsterdam",1057 PV,47,3,4.852015,52.364636
265000.0,"Alfred Döblinstraat 109, Amsterdam",1102 VJ,71,3,4.943523,52.319589
450000.0,"Kuipersstraat 43 2, Amsterdam",1074 EE,56,2,4.904866,52.354123
835000.0,"Cliostraat 14 B, Amsterdam",1077 KG,124,3,4.876154,52.347558
285000.0,"Pretoriusstraat 57 4, Amsterdam",1092 GA,41,2,4.922721,52.354922
1149000.0,"Churchill-laan 216 3, Amsterdam",1078 EW,141,6,4.891921,52.347409
725000.0,"Pyreneeën 7, Amsterdam",1060 NP,173,7,4.773171,52.349954
950000.0,"Lijnbaansstraat 7, Amsterdam",1016 ST,133,7,4.644819,52.37806
450000.0,"Ternatestraat 174, Amsterdam",1095 RZ,84,3,4.944032,52.365457
395000.0,"Van Boshuizenstraat 135, Amsterdam",1083 AT,66,3,4.885793,52.324797
790000.0,"Parnassusweg 29 I, Amsterdam",1077 DC,109,5,4.867865,52.345104
335000.0,"Het Hoogt 166, Amsterdam",1025 HD,92,4,4.936689,52.394567
275000.0,"Toutenburgstraat 104, Amsterdam",1107 PX,83,3,4.9688878,52.2923239
650000.0,"Eerste Jan Steenstraat 112 2, Amsterdam",1072 NR,70,3,4.892242,52.354197
1085000.0,"Cliostraat 12 III, Amsterdam",1077 KG,131,5,4.876231,52.347558
915000.0,"Prinsenstraat 4, Amsterdam",1015 DC,88,5,4.887412,52.377742
315000.0,"Nicolaas Anslijnstraat 117, Amsterdam",1068 WT,81,3,4.807981,52.357437
525000.0,"Beemsterstraat 517, Amsterdam",1024 BE,122,5,4.950277,52.396263
300000.0,"Hoofdweg 241 III, Amsterdam",1057 CW,44,2,4.85225,52.367037
325000.0,"Zaagmolenstraat 9 3, Amsterdam",1052 HB,46,2,4.873501,52.377961
695000.0,"Panamalaan 84, Amsterdam",1019 AZ,107,4,4.934082,52.371077
700000.0,"Nieuwe Kerkstraat 461, Amsterdam",1018 VK,107,3,4.908421,52.364761
575000.0,"Bestevâerstraat 5 2, Amsterdam",1056 HD,80,3,4.860112,52.372671
400000.0,"Ben van Meerendonkstraat 295, Amsterdam",1087 LN,89,3,5.012134,52.349139
325000.0,"Schoorlstraat 42, Amsterdam",1024 PN,77,3,4.945778,52.393622
785000.0,"Rapenburgerplein 8 B, Amsterdam",1011 VB,105,5,4.910725,52.370289
1750000.0,"Leonard Bernsteinstraat 96 A, Amsterdam",1082 MR,130,3,4.872151,52.336348
775000.0,"Nieuwendammerdijk 142, Amsterdam",1025 LS,117,4,4.93174,52.391546
320000.0,"Reigersbos 79, Amsterdam",1106 AP,104,5,4.976237,52.296421
1200000.0,"Overtoom 184 III, Amsterdam",1054 HR,166,5,4.872275,52.362146
499000.0,"J.S. Ruppertstraat 17, Amsterdam",1069 KJ,127,5,4.796462,52.352238
475000.0,"Jan Mankesstraat 13 hs, Amsterdam",1061 SR,124,5,4.837522,52.364821
650000.0,"Slatuinenweg 21, Amsterdam",1057 KA,77,3,4.863394,52.36954
765000.0,"'t Nopeind 2, Amsterdam",1027 AE,100,4,4.964853,52.409986
350000.0,"Waterlandplein 292 D, Amsterdam",1024 NB,87,3,4.954462,52.393215
345000.0,"Amstelveenseweg 186 IV A, Amsterdam",1075 XR,34,2,4.855832,52.352385
369000.0,"Bankastraat 39 D, Amsterdam",1094 EB,47,3,4.933378,52.364949
1095000.0,"George Gershwinlaan 177, Amsterdam",1082 MT,134,3,4.872859,52.335851
415000.0,"Geuzenkade 46 H, Amsterdam",1056 KM,57,2,4.865612,52.373199
849000.0,"Nieuwe Nieuwstraat 28, Amsterdam",1012 NH,120,3,4.893709,52.375387
365000.0,"Dikninge 105, Amsterdam",1083 VA,78,3,4.886519,52.331919
625000.0,"Slatuinenweg 37, Amsterdam",1057 KB,75,3,4.863344,52.370007
350000.0,"Van Spilbergenstraat 69 II, Amsterdam",1057 PZ,50,3,4.85167,52.366405
285000.0,"Kikkenstein 3534, Amsterdam",1104 TT,96,4,4.972596,52.317512
1650000.0,"Colenbranderhof 30, Amsterdam",1065 BG,235,7,4.820848,52.358631
395000.0,"Van Spilbergenstraat 41 I, Amsterdam",1057 PX,53,3,4.851991,52.365663
1295000.0,"Gerrit van der Veenstraat 134, Amsterdam",1077 ES,154,4,4.867645,52.348806
1599000.0,"Eerste Helmersstraat 183 III, Amsterdam",1054 DT,139,5,4.868596,52.361672
345000.0,"Ter Boede 2 hs, Amsterdam",1082 CB,57,2,4.878162,52.325097
399500.0,"Vrijzicht 180, Amsterdam",1068 CK,89,2,4.807068,52.362692
335000.0,"Lutmastraat 202 B, Amsterdam",1074 VA,44,2,4.904467,52.35165
500000.0,"Wevelgemstraat 8, Amsterdam",1066 TM,100,4,4.802122,52.346011
950000.0,"Westerstraat 268, Amsterdam",1015 MT,109,4,4.879612,52.377871
450000.0,"Pruimenstraat 18 B, Amsterdam",1033 KM,87,3,4.896536,52.410585
400000.0,"De Bazelhof 24, Amsterdam",1067 LZ,107,6,4.79581,52.376916
500000.0,"Venetiëhof 212, Amsterdam",1019 NE,89,3,4.947119,52.376909
,"Falckstraat 47 A, Amsterdam",1017 VV,147,3,4.897454,52.360707
925000.0,"Veemkade 1200, Amsterdam",1019 BZ,145,4,4.933939,52.374739
725000.0,"Bonairestraat 73 H, Amsterdam",1058 XE,88,4,4.855145,52.361963
600000.0,"Eef Kamerbeekstraat 584 PP, Amsterdam",1095 MP,108,4,4.967326,52.371556
550000.0,"Tollensstraat 321, Amsterdam",1053 RV,89,4,4.870523,52.365141
835000.0,"Brouwersgracht 187 G, Amsterdam",1015 GJ,120,5,4.88447,52.382635
1595000.0,"Herengracht 116 F+K, Amsterdam",1015 BT,199,6,4.888459,52.375994
910000.0,"Vincent van Goghstraat 19, Amsterdam",1072 KJ,136,5,4.888188,52.3492
445000.0,"Egidiusstraat 23 1, Amsterdam",1055 GL,66,3,4.852373,52.377544
300000.0,"Borgerstraat 29 D, Amsterdam",1053 PA,43,2,4.868786,52.365466
325000.0,"Nijenburg 20, Amsterdam",1081 GG,55,2,4.865786,52.328459
1150000.0,"Hoofdweg 34 H, Amsterdam",1058 BD,150,5,4.853623,52.360284
475000.0,"Bos en Lommerweg 360, Amsterdam",1061 DJ,98,4,4.83852,52.379072
550000.0,"Potgieterstraat 23 IV, Amsterdam",1053 XP,62,3,4.874257,52.369627
225000.0,"Wethouder De Vriesplantsoen 8, Amsterdam",1107 AN,56,2,4.992412,52.295757
450000.0,"Lange Leidsedwarsstraat 32 B, Amsterdam",1017 NL,53,2,4.882472,52.365273
395000.0,"Pieter van der Meulenhof 14, Amsterdam",1106 WV,115,6,4.995049,52.2976
585000.0,"Zuideinde 387 D, Amsterdam",1035 PE,52,4,4.891858,52.42145
225000.0,"Barbusselaan 261, Amsterdam",1102 TV,61,3,4.945309,52.319741
275000.0,"Overleg 82, Amsterdam",1068 RL,57,2,4.803983,52.355143
275000.0,"Cola Debrotstraat 6, Amsterdam",1087 VJ,48,2,5.014044,52.350961
350000.0,"Bramzeilhof 56, Amsterdam",1034 LH,110,5,4.921574,52.408269
385000.0,"Oude-IJselstraat 3 1, Amsterdam",1078 CL,53,2,4.901411,52.347889
289500.0,"Gouden Leeuw 930, Amsterdam",1103 KW,108,5,4.974531,52.325473
475000.0,"Buitendraaierij 36, Amsterdam",1021 NN,113,4,4.916194,52.382138
525000.0,"Westerdoksdijk 375, Amsterdam",1013 AD,63,3,4.892914,52.384794
375000.0,"Eastonstraat 86, Amsterdam",1068 JC,93,4,4.815101,52.356914
360000.0,"Merlijnstraat 16 I, Amsterdam",1055 DE,49,3,4.854243,52.379548
375000.0,"Spicastraat 3, Amsterdam",1033 CN,63,5,4.890785,52.41492
400000.0,"Aalsmeerweg 28 1, Amsterdam",1059 AK,54,3,4.849224,52.350198
2750000.0,"Olympiakade 12, Amsterdam",1076 XP,309,8,4.862413,52.349528
395000.0,"Sandenburch 46, Amsterdam",1082 GN,81,3,4.878726,52.325783
399000.0,"Sloterkade 33 C, Amsterdam",1058 HE,62,2,4.853523,52.356392
260000.0,"Kloekhorststraat 231, Amsterdam",1104 MN,71,3,4.967708,52.317064
520000.0,"Tugelaweg 40 f+PP, Amsterdam",1092 VG,69,3,4.923063,52.35637
399000.0,"Anna Blamansingel 274 VII, Amsterdam",1102 SX,100,3,4.949572,52.317294
550000.0,"Hoofdweg 252 H, Amsterdam",1057 DH,72,3,4.85255,52.367739
250000.0,"Krimpertplein 54, Amsterdam",1104 PH,70,3,4.9685,52.316374
690000.0,"Revaleiland 383, Amsterdam",1014 ZG,100,3,4.881116,52.393955
469000.0,"Driehoekstraat 72, Amsterdam",1015 GL,67,2,4.882743,52.382746
375000.0,"Jan Haringstraat 32 I, Amsterdam",1056 XJ,52,4,4.86106,52.376873
389000.0,"Prins Hendrikkade 512, Amsterdam",1011 TE,30,2,4.906059,52.374085
500000.0,"Brouwersgracht 182 I, Amsterdam",1013 HC,72,2,4.887619,52.381092
275000.0,"Blauwvoetstraat 59, Amsterdam",1061 BM,39,2,4.839165,52.37701
235000.0,"Bataviastraat 67 C, Amsterdam",1095 EP,26,2,4.944758,52.36173
450000.0,"Katwijkstraat 1 a, Amsterdam",1059 XL,62,2,4.847484,52.350909
390000.0,"Blasiusstraat 17 II, Amsterdam",1091 CK,45,3,4.908173,52.356446
900000.0,"Hillenraadt 46, Amsterdam",1083 AJ,159,9,4.886918,52.323885
595000.0,"Hoendiepstraat 36 hs, Amsterdam",1079 LW,73,3,4.910454,52.34221
245000.0,"Reizigersweg 185, Amsterdam",1033 ZP,50,2,4.883861,52.417569
395000.0,"Fazantenweg 15 1, Amsterdam",1021 HJ,68,3,4.920126,52.388122
425000.0,"Spengenpad 34, Amsterdam",1107 WH,142,6,4.977631,52.291519
645000.0,"Kazernestraat 2 2, Amsterdam",1018 CC,89,3,4.921169,52.364353
635000.0,"Niersstraat 35 HS, Amsterdam",1078 VH,81,3,4.894509,52.343016
400000.0,"Jan van Riebeekstraat 3 1, Amsterdam",1057 ZW,61,2,4.858697,52.370661
695000.0,"Da Costakade 171 III, Amsterdam",1053 WX,88,3,4.874092,52.367502
1050000.0,"Koninginneweg 158 4, Amsterdam",1075 EE,119,5,4.860818,52.352776
300000.0,"Willem Leevendstraat 1 1, Amsterdam",1055 KB,54,2,4.846858,52.384197
270000.0,"Cliffordstraat 40 II, Amsterdam",1051 GV,38,1,4.870659,52.383656
1450000.0,"Levantplein 9, Amsterdam",1019 MA,273,5,4.942112,52.376819
575000.0,"Haringbuisdijk 14, Amsterdam",1086 VA,128,4,4.90981909560303,52.3686532505277
540000.0,"Plejadenplein 1, Amsterdam",1033 VK,79,4,4.88439,52.413734
285000.0,"Laan van Vlaanderen 141 A2, Amsterdam",1066 MP,37,2,4.807805,52.344914
300000.0,"Tweede Oosterparkstraat 132 E, Amsterdam",1092 BP,40,2,4.91803,52.357424
350000.0,"Haag en Veld 245 B, Amsterdam",1102 GL,144,6,4.955915,52.310514
375000.0,"Wethouder Ramstraat 11, Amsterdam",1107 CM,98,5,4.990488,52.292974
375000.0,"Sam van Houtenstraat 191 C, Amsterdam",1067 JG,94,4,4.800745,52.379133
320000.0,"Steenderenstraat 74, Amsterdam",1107 LD,91,4,4.983191,52.294198
330000.0,"Rhenenhof 19, Amsterdam",1106 JC,108,5,4.971123,52.297841
375000.0,"Doggersbankstraat 4 1, Amsterdam",1055 NX,57,3,4.850695,52.383963
225000.0,"Groenhoven 453, Amsterdam",1103 LN,52,2,4.976804,52.325544
465000.0,"Sijsjesstraat 12, Amsterdam",1021 CW,66,3,4.917899,52.386198
329000.0,"Loenermark 130, Amsterdam",1025 SM,74,4,4.928532,52.397672
375000.0,"Oudezijds Voorburgwal 161 E, Amsterdam",1012 ET,47,2,4.896579,52.372127
345000.0,"IJselstraat 40 2, Amsterdam",1078 CJ,47,2,4.899374,52.347656
475000.0,"Bilderdijkkade 22 IV, Amsterdam",1053 VC,60,3,4.868057,52.370073
750000.0,"Sarphatistraat 478, Amsterdam",1018 GW,124,5,4.918831,52.363292
375000.0,"Willem Kraanstraat 38, Amsterdam",1063 MG,118,4,4.82399,52.380639
1150000.0,"Hugo de Grootkade 9 H, Amsterdam",1052 LN,145,5,4.87195,52.372454
440000.0,"Kruisherenpad 7, Amsterdam",1067 DZ,115,6,4.802015,52.380829
425000.0,"Lodewijk Boisotstraat 6 H, Amsterdam",1057 ZN,58,3,4.858639,52.369339
275000.0,"Baden Powellweg 165, Amsterdam",1069 LE,92,4,4.795583,52.348505
350000.0,"Kinkerstraat 320 III, Amsterdam",1053 GD,46,2,4.863132,52.36504
325000.0,"Nova Zemblastraat 544, Amsterdam",1013 RP,42,2,4.879081,52.390874
539000.0,"KNSM-laan 609, Amsterdam",1019 LD,88,3,4.942972,52.377442
775000.0,"Jacob van Lennepstraat 17 I, Amsterdam",1053 HA,93,3,4.875949,52.366908
330000.0,"Burgemeester Hogguerstraat 773, Amsterdam",1064 EB,78,3,4.829637,52.372964
429000.0,"Nieuwe Prinsengracht 48 G, Amsterdam",1018 VS,50,3,4.907585,52.363609
325000.0,"Wamelstraat 76, Amsterdam",1106 DM,91,4,4.987296,52.300656
629000.0,"Ringvaartdijk 28, Amsterdam",1066 DE,127,4,4.794478,52.338652
525000.0,"Tjeukemeerhof 14, Amsterdam",1060 PR,153,6,4.778978,52.349265
425000.0,"Meer en Vaart 90 B, Amsterdam",1068 ZZ,110,4,4.804152,52.364802
535000.0,"Lumeijstraat 24 III, Amsterdam",1056 VX,75,4,4.861328,52.372929
459000.0,"Carolina MacGillavrylaan 130, Amsterdam",1098 XA,75,3,4.94178,52.357269
500000.0,"Pretoriusstraat 11 II, Amsterdam",1092 EW,67,3,4.926673,52.356043
685000.0,"Henri Zagwijnstraat 14 3, Amsterdam",1077 XR,107,4,4.868754,52.341846
480000.0,"Willebroekstraat 38, Amsterdam",1066 WE,127,5,4.80722,52.344454
445000.0,"Van Abbestraat 66, Amsterdam",1064 WV,101,3,4.83075,52.365104
499000.0,"Leeuwendalersweg 648 PP, Amsterdam",1061 BJ,92,4,4.837996,52.37746
1500000.0,"Amstelveenseweg 970 C, Amsterdam",1081 JR,166,4,4.857216,52.325762
644900.0,"Cliffordstraat 3 3, Amsterdam",1051 GP,92,3,4.873124,52.383918
600000.0,"Hertspieghelweg 64 H, Amsterdam",1055 KR,82,4,4.852076,52.381479
1025000.0,"Saxenburgerstraat 1 B, Amsterdam",1054 KM,125,3,4.860922,52.358834
875000.0,"Zuidelijke Wandelweg 151, Amsterdam",1079 RK,123,4,4.894206,52.33822
245000.0,"Poederooienstraat 97, Amsterdam",1106 CG,71,3,4.98042,52.299114
1495000.0,"Dorpsstraat Holysloot 62, Amsterdam",1028 BE,214,5,5.029122,52.41355
350000.0,"Petrus Blokhof 12 II, Amsterdam",1065 XK,68,4,4.829524,52.363328
415000.0,"Clara Zetkinstraat 58, Amsterdam",1103 DH,115,4,4.961952,52.321743
700000.0,"Poeldijkstraat 269, Amsterdam",1059 VL,106,3,4.844918,52.349996
475000.0,"Suikerpeerpad 39, Amsterdam",1036 KE,105,5,4.900926,52.408311
580000.0,"Tenerifestraat 40, Amsterdam",1060 TH,128,6,4.789928,52.343712
365000.0,"J.C. van Epenstraat 47, Amsterdam",1019 GP,59,2,4.944414,52.368343
1200000.0,"Zocherstraat 23 X, Amsterdam",1054 LR,81,3,4.858004,52.3574
499000.0,"Kinderdijkstraat 48 3, Amsterdam",1079 GL,75,3,4.902863,52.342664
315000.0,"Steenderenstraat 72, Amsterdam",1107 LD,102,5,4.983162,52.294189
325000.0,"Zeeburgerdijk 64 I, Amsterdam",1094 AE,43,2,4.934601,52.36596
300000.0,"Van Ostadestraat 27 1, Amsterdam",1072 SM,35,2,4.888159,52.351789
785000.0,"Chasséstraat 21 III, Amsterdam",1057 HW,95,5,4.861607,52.367915
4495000.0,"Dam 5 V, Amsterdam",1012 JS,178,5,4.89429,52.373106
650000.0,"Retiefstraat 61 3, Amsterdam",1092 VZ,102,4,4.922217,52.355442
310000.0,"Oeverpad 221, Amsterdam",1068 PJ,78,3,4.806801,52.364911
399000.0,"Sumatrakade 1523, Amsterdam",1019 RS,66,2,4.923315,52.379524
395000.0,"Eerste Boerhaavestraat 16 1, Amsterdam",1091 SB,44,2,4.907275,52.358042
300000.0,"Van Ostadestraat 193 H, Amsterdam",1073 TM,33,2,4.897142,52.353111
900000.0,"Keizersgracht 131 E, Amsterdam",1015 CJ,111,2,4.887092,52.376105
600000.0,"Thorn Prikkerstraat 93, Amsterdam",1062 BS,114,4,4.837666,52.362011
300000.0,"Wethouder In 't Veldstraat 77, Amsterdam",1107 AX,84,4,4.991578,52.293948
439000.0,"Entrepotdok 85 A, Amsterdam",1018 AD,48,2,4.917931,52.367418
325000.0,"Tweede Weteringdwarsstraat 44 2, Amsterdam",1017 SX,44,3,4.889549,52.361331
885000.0,"Cliostraat 14 A, Amsterdam",1077 KG,136,3,4.876154,52.347558
695000.0,"Geldersekade 37 II, Amsterdam",1011 EJ,96,3,4.902359,52.37536
400000.0,"Marius Meijboomstraat 21, Amsterdam",1087 LD,79,3,5.009082,52.351935
450000.0,"Linnaeusstraat 243 1., Amsterdam",1093 ER,60,4,4.928173,52.355788
450000.0,"Fahrenheitsingel 101, Amsterdam",1097 NX,55,2,4.925792,52.344742
485000.0,"Meeuwenlaan 175 B, Amsterdam",1021 JC,93,5,4.918067,52.385525
350000.0,"Haarlemmerdijk 178 B, Amsterdam",1013 JK,48,2,4.884769,52.384121
998000.0,"Herengracht 12 C, Amsterdam",1015 BK,121,2,4.891161,52.378843
775000.0,"Dulcie Septemberpad 12, Amsterdam",1093 NK,126,5,4.932925,52.358206
295000.0,"Werengouw 409, Amsterdam",1024 NZ,59,3,4.946534,52.394352
635000.0,"Prins Hendrikkade 156 2, Amsterdam",1011 AW,58,3,4.907085,52.372907
400000.0,"Amstelveenseweg 186 4A, Amsterdam",1075 XR,37,2,4.855832,52.352385
325000.0,"Niasstraat 12 B, Amsterdam",1095 VA,42,2,4.940171,52.364934
550000.0,"Beethovenstraat 225, Amsterdam",1077 JE,78,3,4.877208,52.342458
495000.0,"Kanaalstraat 38 2, Amsterdam",1054 XJ,54,3,4.86547,52.3628
1250000.0,"Bloemgracht 81 6, Amsterdam",1016 KH,165,7,4.879978,52.374421
2475000.0,"Huidekoperstraat 24 F, Amsterdam",1017 ZM,183,4,4.897473,52.358943
725000.0,"Oostzaanstraat 255, Amsterdam",1013 WJ,118,4,4.87252,52.392217
425000.0,"Von Zesenstraat 225, Amsterdam",1093 DD,82,3,4.925735,52.364335
700000.0,"Uiterwaardenstraat 9 H, Amsterdam",1079 BN,79,3,4.911378,52.342112
250000.0,"Wieringerwaardstraat 221, Amsterdam",1024 HL,50,2,4.959052,52.3958
335000.0,"Het Hoogt 180, Amsterdam",1025 HE,92,4,4.936896,52.394478
275000.0,"Burgemeester Cramergracht 67, Amsterdam",1064 AG,64,2,4.832681,52.372996
1120000.0,"Eerste Helmersstraat 244 A, Amsterdam",1054 ER,129,5,4.860337,52.359856
450000.0,"Haarlemmermeerstraat 151 1, Amsterdam",1058 JX,64,3,4.850607,52.352379
400000.0,"Duke Ellingtonstraat 46, Amsterdam",1066 GE,79,3,4.826718,52.343893
500000.0,"Fahrenheitsingel 17, Amsterdam",1097 NR,72,2,4.922788,52.342942
339000.0,"Eerste Van Swindenstraat 203, Amsterdam",1093 GB,47,2,4.926678,52.36264
700000.0,"Jacob Burggraafstraat 90, Amsterdam",1018 WA,106,3,4.922868,52.371793
450000.0,"Mauritsstraat 2, Amsterdam",1091 DA,45,2,4.9064,52.358857
700000.0,"Eurokade 36, Amsterdam",1060 RZ,186,8,4.786024,52.348087
425000.0,"Doddendaal 56, Amsterdam",1082 XW,79,3,4.874705,52.332273
365000.0,"Quellijnstraat 46 H, Amsterdam",1072 XT,40,2,4.887941,52.35683
425000.0,"Van der Hoopstraat 33 A2, Amsterdam",1051 VB,56,2,4.943696,52.338795
1475000.0,"Geschutswerf 81, Amsterdam",1018 AW,220,5,4.920481,52.366984
750000.0,"Javakade 144, Amsterdam",1019 RW,118,4,4.930455,52.377871
595000.0,"Blasiusstraat 63 2, Amsterdam",1091 CL,93,3,4.910003,52.356903
1100000.0,"Amstelvlietstraat 193, Amsterdam",1096 GG,159,5,4.919919,52.338283
800000.0,"Dulcie Septemberpad 2, Amsterdam",1093 NK,130,5,4.932943,52.358329
1695000.0,"Pieter Cornelisz. Hooftstraat 169 B, Amsterdam",1071 BW,117,3,4.876144,52.358928
999500.0,"Willem Frederik Hermansstraat 169 PP, Amsterdam",1011 DG,151,3,4.907627,52.376281
685000.0,"Blasiusstraat 8 2, Amsterdam",1091 CR,64,3,4.907736,52.356157
849000.0,"Hagedoornplein 24, Amsterdam",1031 BV,111,5,4.91369,52.38816
350000.0,"Teldershof 57, Amsterdam",1067 ML,88,3,4.800286,52.380052
179000.0,"Dalsteindreef 198, Amsterdam",1102 WX,29,2,4.945048,52.325695
385000.0,"Geervliet 20 A, Amsterdam",1082 NT,65,3,4.87989,52.331729
535000.0,"Keizersgracht 682 E, Amsterdam",1017 ET,67,2,4.894107,52.363363
750000.0,"Haparandaweg 750, Amsterdam",1013 BD,102,3,4.877406,52.394832
850000.0,"Insulindeweg 116, Amsterdam",1094 PT,110,2,4.936223,52.360906
500000.0,"Tweede Keucheniusstraat 8 3, Amsterdam",1051 VR,70,3,4.869195,52.380747
375000.0,"Mijehof 285, Amsterdam",1106 HH,111,5,4.970987,52.301346
425000.0,"Cornelis Dopperkade 6 6A, Amsterdam",1077 KL,67,2,4.877222,52.344263
439000.0,"Herculesstraat 60 B, Amsterdam",1076 SP,57,3,4.862129,52.347398
340000.0,"Burgemeester Hogguerstraat 769, Amsterdam",1064 EB,78,3,4.829629,52.372955
625000.0,"Ferguutstraat 16 III, Amsterdam",1055 SX,95,5,4.855072,52.377799
1295000.0,"Amstel 13, Amsterdam",1011 PT,145,5,4.89952,52.367261
275000.0,"Steenderenstraat 32, Amsterdam",1107 LC,73,2,4.983209,52.29383
1750000.0,"Borneokade 70, Amsterdam",1019 AW,246,8,4.90981909560303,52.3686532505277
775000.0,"Prinsengracht 1031 C, Amsterdam",1017 KP,127,3,4.895121,52.361947
325000.0,"Bloys van Treslongstraat 62 H, Amsterdam",1056 XD,43,2,4.859637,52.375563
385000.0,"Jozef Israëlskade 30 B, Amsterdam",1072 RW,54,2,4.889927,52.348587
825000.0,"Govert Flinckstraat 392 II, Amsterdam",1074 CJ,97,4,4.902906,52.35753
335000.0,"Grootzeilhof 10, Amsterdam",1034 LX,93,4,4.92221,52.409314
375000.0,"Hertspieghelweg 6 I, Amsterdam",1055 KL,59,3,4.852415,52.380133
500000.0,"Venetiëhof 10, Amsterdam",1019 NA,84,3,4.947231,52.377422
550000.0,"Roelof Hartstraat 13 II, Amsterdam",1071 VE,61,3,4.884848,52.352502
300000.0,"Leerdamhof 294, Amsterdam",1108 CA,71,2,4.976454,52.306326
475000.0,"Tweede Ceramstraat 10, Amsterdam",1095 BN,79,3,4.942841,52.362693
425000.0,"Rozenstraat 80 E, Amsterdam",1016 NX,56,3,4.880816,52.37278
5950000.0,"Keizersgracht 544, Amsterdam",1017 EL,394,10,4.887378,52.365078
300000.0,"S. F. van Ossstraat 334, Amsterdam",1068 JS,79,4,4.810678,52.355493
685000.0,"Saxen-Weimarlaan 22 2, Amsterdam",1075 CB,80,3,4.856566,52.353584
675000.0,"Bonairestraat 46 Hs, Amsterdam",1058 XJ,84,4,4.855835,52.360699
1650000.0,"Ruysdaelkade 109, Amsterdam",1072 AN,232,9,4.887183,52.35502
685000.0,"Kuipersstraat 43 HS, Amsterdam",1074 EE,91,4,4.904866,52.354123
750000.0,"Hof van Versailles 37, Amsterdam",1064 NX,155,6,4.832889,52.367757
1400000.0,"Oudezijds Voorburgwal 126 A+B, Amsterdam",1012 GH,213,7,4.897256,52.373343
425000.0,"Herculesstraat 124 I, Amsterdam",1076 ST,54,3,4.861234,52.346145
1000000.0,"Beulingstraat 6 A, Amsterdam",1017 BA,120,3,4.887462,52.368027
425000.0,"J.G. Suurhoffstraat 123, Amsterdam",1067 VR,102,4,4.789341,52.380775
375000.0,"Van Oldenbarneveldtstraat 22 II, Amsterdam",1052 KB,52,2,4.875248,52.376809
500000.0,"Magalhaensplein 25 H, Amsterdam",1057 VE,73,3,4.853124,52.367607
350000.0,"Postjesweg 341, Amsterdam",1062 JS,81,3,4.837764,52.363887
325000.0,"Johan Huizingalaan 310 I, Amsterdam",1065 JN,71,4,4.827036,52.353376
235000.0,"Charlotte Brontéstraat 164, Amsterdam",1102 XH,58,2,4.947669,52.325253
1175000.0,"Rubensstraat 26 2, Amsterdam",1077 MR,159,7,4.873365,52.349164
750000.0,"Kamperfoelieweg 6, Amsterdam",1032 HN,116,4,4.913949,52.392914
325000.0,"Bentinckstraat 95 3, Amsterdam",1051 GJ,41,2,4.871342,52.383093
350000.0,"Pontanusstraat 200, Amsterdam",1093 SH,53,2,4.930264,52.363679
1249000.0,"Uilengouw 2, Amsterdam",1027 EZ,258,5,4.967897,52.410672
375000.0,"Oostzaanstraat 271, Amsterdam",1013 WJ,52,3,4.872555,52.392426
295000.0,"Nicolaas Anslijnstraat 125, Amsterdam",1068 WV,82,3,4.808181,52.357419
1250000.0,"Bilderdijkkade 50 D2, Amsterdam",1053 VN,149,6,4.868023,52.370359
700000.0,"Dorpsweg Ransdorp 36, Amsterdam",1028 BP,103,4,4.99474,52.392365
315000.0,"Nicolaas Anslijnstraat 108, Amsterdam",1068 WT,81,3,4.80824,52.357393
425000.0,"Goudsbloemstraat 191 A, Amsterdam",1015 JN,48,2,4.881348,52.380215
495000.0,"Landzicht 23, Amsterdam",1068 ZV,117,6,4.803386,52.364806
375000.0,"Oostenburgergracht 41 A, Amsterdam",1018 NB,43,2,4.921855,52.368922
285000.0,"Kleiburg 524, Amsterdam",1104 EA,69,3,4.979002,52.318782
719000.0,"Kortrijk 50, Amsterdam",1066 TC,129,4,4.802093,52.343737
375000.0,"Voorsteven 11, Amsterdam",1034 SK,89,5,4.915413,52.40997
650000.0,"Kaneelappelstraat 90, Amsterdam",1036 LG,113,6,4.903976,52.407476
675000.0,"Derde Helmersstraat 50 H, Amsterdam",1054 BJ,75,3,4.876322,52.365121
335000.0,"Grootzeil 197, Amsterdam",1034 LW,92,4,4.921825,52.409609
360000.0,"Van Boetzelaerstraat 40 H, Amsterdam",1051 CW,41,2,4.873624,52.382635
2475000.0,"Huidekoperstraat 24 F, Amsterdam",1017 ZM,183,3,4.897473,52.358943
340000.0,"Louise de Colignystraat 54 H, Amsterdam",1055 XN,47,2,4.856817,52.380458
325000.0,"Burgemeester Hogguerstraat 273, Amsterdam",1064 CP,78,3,4.829644,52.372068
439000.0,"Prins Hendrikkade 510 K, Amsterdam",1011 TE,55,3,4.90487,52.374978
380000.0,"Pieter van der Werfstraat 44, Amsterdam",1067 EP,100,4,4.80256,52.380679
1100011.0,"Klaprozenweg 73 A, Amsterdam",1032 KK,207,5,4.90048,52.400948
850000.0,"Prinsengracht 1033 C, Amsterdam",1017 KP,120,3,4.89518,52.361947
350000.0,"Jan van Duivenvoordestraat 85 2, Amsterdam",1067 MT,92,3,4.802582,52.379007
350000.0,"Joan Melchior Kemperstraat 46 IV, Amsterdam",1051 TS,39,2,4.874462,52.38503
340000.0,"Oudezijds Voorburgwal 93 B, Amsterdam",1012 EL,35,2,4.898311,52.373509
230000.0,"Welnastraat 479, Amsterdam",1096 GJ,28,1,4.920676,52.338759
989000.0,"Zuideinde 356, Amsterdam",1035 PP,171,5,4.893261,52.419532
3680000.0,"Badhuiskade 353, Amsterdam",1031 KV,374,4,4.905695,52.385321
450000.0,"Pesetalaan 27, Amsterdam",1060 SC,111,4,4.785975,52.347341
325000.0,"Ponserstraat 12, Amsterdam",1033 DL,77,3,4.899777,52.40313
325000.0,"Waverstraat 48 2, Amsterdam",1079 VM,47,2,4.909223,52.34615
930000.0,"Zuidelijke Wandelweg 151 PP, Amsterdam",1079 RK,123,4,4.894206,52.33822
375000.0,"Philip Vingboonsstraat 19, Amsterdam",1067 BG,84,4,4.7958,52.38318
295000.0,"Aalbersestraat 232, Amsterdam",1067 GM,65,4,4.798255,52.378644
348738.0,"Quashibastraat, Amsterdam",1087 VS,79,4,5.0165552,52.3505131
350000.0,"Orteliusstraat 309 I, Amsterdam",1056 NZ,55,3,4.847389,52.373198
550000.0,"Eurokade 10, Amsterdam",1060 RZ,137,5,4.787554,52.348895
1700000.0,"Utrechtsedwarsstraat 4, Amsterdam",1017 WG,194,6,4.896542,52.360937
275000.0,"Hofgeest 111, Amsterdam",1102 EE,94,4,4.95696,52.311632
1300000.0,"Ouderkerkerdijk 34, Amsterdam",1096 CR,141,4,4.904363,52.333206
700000.0,"Paramaribostraat 122 3, Amsterdam",1058 VP,102,6,4.85452,52.36209
375000.0,"Bankastraat 36 III, Amsterdam",1094 EG,56,3,4.933659,52.364743
425000.0,"Rietveld Schröderpad 15, Amsterdam",1064 WX,82,3,4.83186,52.364372
500000.0,"Haparandaweg 932 A, Amsterdam",1013 BD,76,3,4.878134,52.395229
345000.0,"Hendrik Bulthuisstraat 8, Amsterdam",1067 SC,69,4,4.795948,52.374337
295000.0,"Harry Koningsbergerstraat 192, Amsterdam",1063 AH,46,2,4.837695,52.383556
750000.0,"Archimedesweg 32 I, Amsterdam",1098 JR,102,5,4.937898,52.356428
300000.0,"Groetstraat 210, Amsterdam",1024 VG,65,3,4.951253,52.394145
1375000.0,"Vossiusstraat 6 C, Amsterdam",1071 AB,115,3,4.881814,52.361226
525000.0,"Ceintuurbaan 199 1, Amsterdam",1074 CV,70,3,4.901743,52.355153
875000.0,"Nieuwe Uilenburgerstraat 9 F, Amsterdam",1011 LM,117,3,4.906839,52.371272
575000.0,"Arent Janszoon Ernststraat 41, Amsterdam",1083 GP,134,5,4.887858,52.332103
495000.0,"Valkhof 21, Amsterdam",1082 VC,81,4,4.870861,52.332238
345000.0,"Spaarndammerstraat 62 1, Amsterdam",1013 SZ,48,2,4.880745,52.388005
360000.0,"Olympiaweg 58 III, Amsterdam",1076 XB,42,3,4.86139,52.347835
239000.0,"Groenhoven 358, Amsterdam",1103 LK,53,3,4.977675,52.324231
410000.0,"Tweede Oosterparkstraat 188 2, Amsterdam",1092 BT,66,4,4.920472,52.357987
570000.0,"J.J. Cremerplein 24 II, Amsterdam",1054 TL,63,3,4.85856,52.359929
575000.0,"Droogbak 6 B, Amsterdam",1013 GE,80,3,4.893865,52.379863
350000.0,"Waterlandplein 290 E, Amsterdam",1024 NB,92,3,4.954434,52.393227
230000.0,"Barbusselaan 127, Amsterdam",1102 TT,53,2,4.944301,52.320816
398000.0,"Het Breed 617, Amsterdam",1025 HW,102,3,4.93924,52.396527
375000.0,"Albert Luthulistraat 26 B, Amsterdam",1091 NW,54,3,4.919118,52.352814
300000.0,"Ruimzicht 83, Amsterdam",1068 CP,88,2,4.807168,52.361653
825000.0,"Pieter de Hoochstraat 25 B, Amsterdam",1071 ED,103,3,4.885645,52.35602
1000000.0,"Bosplaat 80, Amsterdam",1025 AT,220,7,4.948314,52.400138
375000.0,"Van Spilbergenstraat 36 3, Amsterdam",1057 RH,52,3,4.852329,52.365365
375000.0,"Kantershof 451, Amsterdam",1104 GZ,90,4,4.992035,52.316742
350000.0,"Akbarstraat 16 D, Amsterdam",1061 EA,58,3,4.841738,52.378934
550000.0,"Enkhuizerstraat 5, Amsterdam",1023 VP,114,6,4.942035,52.393266
275000.0,"Bijlmerdreef 1099, Amsterdam",1103 TT,78,3,4.972526,52.321871
280000.0,"Tielstraat 31, Amsterdam",1107 PZ,82,3,4.968223,52.291672
1050000.0,"Nieuwe Prinsengracht 8 3, Amsterdam",1018 XH,149,8,4.904917,52.362949
500000.0,"Jacob Melkmanstraat 52, Amsterdam",1063 GN,102,5,4.823859,52.383847
400000.0,"Osdorpplein 57, Amsterdam",1068 EK,88,4,4.80651,52.359451
585000.0,"Hoofdweg 150 hs, Amsterdam",1057 DB,75,3,4.853451,52.364831
235000.0,"Marius Bauerstraat 235 B2, Amsterdam",1062 AL,33,2,4.836971,52.362788
325000.0,"Fleerde 203, Amsterdam",1102 AV,97,4,4.955054,52.317674
345000.0,"Veldzicht 85, Amsterdam",1068 SM,61,3,4.798199,52.362969
295000.0,"Beulingstraat 13 D, Amsterdam",1017 BA,29,2,4.887596,52.367946
575000.0,"Bos en Lommerplein 109 PP, Amsterdam",1055 AD,119,3,4.845779,52.37755
4550000.0,"Westeinde 16, Amsterdam",1017 ZP,497,13,4.89862,52.358798
300000.0,"Spinaker 219, Amsterdam",1034 MK,92,4,4.922975,52.410584
350000.0,"Sean MacBridestraat 16, Amsterdam",1102 JW,93,3,4.960086,52.318673
375000.0,"Koolpalmhof 18, Amsterdam",1104 DH,104,3,4.983057,52.318698
245000.0,"Langswater 278, Amsterdam",1069 EC,61,3,4.789682,52.355404
1185000.0,"Vijzelstraat 91, Amsterdam",1017 HH,160,5,4.892374,52.363383
800000.0,"Ank van der Moerstraat 29, Amsterdam",1065 LH,132,6,4.824867,52.35227
245000.0,"Stoutenburggracht 11, Amsterdam",1107 KW,73,3,4.98366,52.294299
785000.0,"Warmoesstraat 16 M, Amsterdam",1012 JD,112,3,4.899032,52.376065
729000.0,"Geldersekade 52 A, Amsterdam",1012 BJ,110,5,4.90132,52.375059
350000.0,"Jan van Duivenvoordestraat 35, Amsterdam",1067 MT,92,3,4.802618,52.378567
675000.0,"Uffizilaan 43, Amsterdam",1064 WJ,157,5,4.831079,52.368144
399000.0,"Postjeskade 41 2, Amsterdam",1058 DG,49,3,4.854671,52.363471
325000.0,"Het Hoogt 178, Amsterdam",1025 HD,92,4,4.936866,52.394487
375000.0,"Rustenburgerstraat 154 2, Amsterdam",1073 GJ,47,2,4.899509,52.352717
225000.0,"Groenhoven 864, Amsterdam",1103 NB,54,2,4.975727,52.326205
2200000.0,"Valeriusstraat 137 H, Amsterdam",1075 ET,198,7,4.865847,52.353256
750750.0,"Mauvestraat 56 II+III, Amsterdam",1073 RN,114,4,4.902864,52.349279
512000.0,"Geldersekade 11 II, Amsterdam",1011 EH,64,2,4.902531,52.37572
698000.0,"Van der Helstplein 10 3, Amsterdam",1072 PH,89,5,4.894517,52.351528
465000.0,"Zwanenplein 69, Amsterdam",1021 CK,73,4,4.918062,52.387403
675000.0,"Koninginneweg 195 2, Amsterdam",1075 CR,72,3,4.860601,52.352451
650000.0,"Rijsbesstraat 2, Amsterdam",1036 LN,125,5,4.901879,52.406292
1350000.0,"Ruysdaelkade 107, Amsterdam",1072 AN,173,5,4.887183,52.355065
,"Zeeburgerkade 760, Amsterdam",1019 HT,107,3,4.945022,52.369244
280000.0,"Hogevecht 186 B, Amsterdam",1102 HJ,93,4,4.95868,52.309724
450000.0,"Borneolaan 342, Amsterdam",1019 KL,85,3,4.937516,52.370995
525000.0,"Lijnbaansgracht 188 H, Amsterdam",1016 XA,64,4,4.878779,52.368556
275000.0,"Werengouw 413, Amsterdam",1024 NZ,64,3,4.94649,52.39437
430000.0,"Vrolikstraat 309 C, Amsterdam",1091 VE,56,2,4.917761,52.356215
700000.0,"Keizersgracht 649 F, Amsterdam",1017 DT,76,4,4.895174,52.363763
260000.0,"Kolfschotenstraat 154, Amsterdam",1104 PC,83,4,4.969802,52.316702
475000.0,"Aalsmeerweg 112 II, Amsterdam",1059 AR,62,4,4.846923,52.347545
385000.0,"Billitonstraat 4 3, Amsterdam",1094 BC,49,3,4.938408,52.365552
225000.0,"Hogevecht 47, Amsterdam",1102 HB,62,2,4.957403,52.309773
325000.0,"Kinkerstraat 326 1, Amsterdam",1053 GD,40,2,4.862992,52.365
1250000.0,"Bellamystraat 13 15, Amsterdam",1053 BE,202,6,4.866447,52.367118
550000.0,"Antillenstraat 25 III, Amsterdam",1058 GX,81,5,4.850743,52.359283
375000.0,"Curaçaostraat 76 1, Amsterdam",1058 CA,57,3,4.852248,52.361159
345000.0,"Klaas Katerstraat 118, Amsterdam",1069 RT,80,3,4.795934,52.350007
320000.0,"Wamelplein 158, Amsterdam",1106 DS,83,3,4.988144,52.299293
650000.0,"Marnixstraat 255 H, Amsterdam",1015 WH,102,3,4.877436,52.375551
300000.0,"Groetstraat 193, Amsterdam",1024 VE,78,4,4.950977,52.393821
975000.0,"Panamakade 66, Amsterdam",1019 AX,165,5,4.946186,52.373257
1100000.0,"Willemsparkweg 125 C, Amsterdam",1071 GW,136,3,4.872591,52.356414
175000.0,"Amerbos 34, Amsterdam",1025 ZM,28,1,4.945552,52.402968
995000.0,"Herengracht 193 C, Amsterdam",1016 BE,113,3,4.888199,52.374321
250000.0,"Willem Kraanstraat 80, Amsterdam",1063 ML,48,3,4.823887,52.38063
450000.0,"Willem Heselaarsstraat 70, Amsterdam",1069 KA,115,3,4.798695,52.352124
365000.0,"Burgemeester Hogguerstraat 329, Amsterdam",1064 CR,78,4,4.829607,52.372067
1700000.0,"Raphaëlstraat 5, Amsterdam",1077 PN,203,5,4.869966,52.349904
519900.0,"Dijkwater 189, Amsterdam",1025 CW,120,5,4.937065,52.400905
295000.0,"Dickenslaan 146, Amsterdam",1102 ZW,89,4,4.945355,52.323983
250000.0,"Tielstraat 53, Amsterdam",1107 RA,70,3,4.968806,52.291803
665000.0,"Archimedesweg 56, Amsterdam",1098 JR,118,4,4.938738,52.356081
1250000.0,"Westerdok 452, Amsterdam",1013 BH,147,4,4.891955,52.38514
398011.0,"Kleine Beerstraat 6, Amsterdam",1033 CR,61,3,4.892619,52.413849
750000.0,"Haarlemmerstraat 98 B, Amsterdam",1013 EW,119,6,4.890977,52.380642
425000.0,"Martin Vlaarkade 97, Amsterdam",1013 CS,75,3,4.8814,52.388529
485000.0,"IJburglaan 1453 PP, Amsterdam",1087 KH,105,4,5.000345,52.352811
575000.0,"Admiraal De Ruijterweg 125 2, Amsterdam",1056 EX,78,3,4.858844,52.373106
445000.0,"Anne Frankstraat 224, Amsterdam",1011 MP,66,3,4.909207,52.369475
350000.0,"Zaagmolenstraat 9, Amsterdam",1052 HB,46,3,4.873501,52.377961
325000.0,"Ruimzicht 296, Amsterdam",1068 CZ,88,3,4.809676,52.361641
425000.0,"Gibraltarstraat 73 1, Amsterdam",1055 NK,57,3,4.849341,52.384118
475000.0,"Leghornstraat 4, Amsterdam",1109 BW,118,5,5.015376,52.305296
375000.0,"Jan Ligthartstraat 19, Amsterdam",1068 PA,96,4,4.806801,52.352919
375000.0,"Lange Leidsedwarsstraat 103 1 A, Amsterdam",1017 NJ,38,1,4.886109,52.363042
975000.0,"Moestuinlaan 10, Amsterdam",1036 KD,180,5,4.900779,52.408945
515000.0,"George Ortonpad 9, Amsterdam",1034 WN,119,4,4.918363,52.403385
1500000.0,"Kromme Waal 18, Amsterdam",1011 BS,194,9,4.902614,52.374848
425000.0,"Leeuwendalersweg 13 E, Amsterdam",1055 JE,80,4,4.846389,52.379296
300000.0,"Ladogameerhof 162, Amsterdam",1060 RE,67,3,4.783188,52.350225
300000.0,"Stentorstraat 95 I, Amsterdam",1035 XE,68,3,4.898877,52.419502
237000.0,"Gouden Leeuw 347, Amsterdam",1103 KH,53,3,4.974395,52.324322
465000.0,"Westlandgracht 139 H, Amsterdam",1059 TG,67,3,4.846172,52.351371
615000.0,"Van der Palmkade 116, Amsterdam",1051 RH,95,4,4.8722593,52.379951
370000.0,"Tweede Kostverlorenkade 28 2, Amsterdam",1053 TP,46,2,4.865067,52.369611
669000.0,"Zuideinde 417, Amsterdam",1035 PG,107,5,4.89278,52.420465
1625000.0,"Gerrit van der Veenstraat 145 B*, Amsterdam",1077 DZ,257,9,4.869761,52.348636
825000.0,"Cliostraat 21 II, Amsterdam",1077 KB,100,3,4.875925,52.347368
200000.0,"Burgemeester De Vlugtlaan 219, Amsterdam",1063 BL,27,2,4.818173,52.38178
369000.0,"Rijswijkstraat 69, Amsterdam",1062 ER,78,3,4.841525,52.35007
760000.0,"Lindengracht 24 III, Amsterdam",1015 KJ,90,4,4.886718,52.380687
350000.0,"Van Boetzelaerstraat 36 1, Amsterdam",1051 CW,45,2,4.873726,52.382654
575000.0,"Hamontstraat 59, Amsterdam",1066 LG,134,6,4.812092,52.348999
300000.0,"Vianenstraat 97, Amsterdam",1106 DB,90,4,4.984519,52.299712
399500.0,"Baden Powellweg 60 B, Amsterdam",1069 LK,99,3,4.792451,52.354762
295000.0,"Baden Powellweg 107, Amsterdam",1069 LD,91,4,4.795401,52.348468
245000.0,"Langswater 576, Amsterdam",1069 EE,61,3,4.788481,52.357145
699000.0,"Doornburg 155, Amsterdam",1081 JX,98,3,4.861985,52.322384
1795000.0,"Weesperzijde 114 huis, Amsterdam",1091 EN,158,6,4.912109,52.350755
875000.0,"Noorderakerweg 100, Amsterdam",1069 LW,161,4,4.777448,52.350596
550000.0,"IJburglaan 1468, Amsterdam",1087 KG,145,3,5.000011,52.352324
995000.0,"Herengracht 553 I, Amsterdam",1017 BW,146,3,4.895233,52.365084
465000.0,"Statenjachtstraat 211, Amsterdam",1034 GA,104,3,4.918343,52.405579
600000.0,"Warmoesstraat 139 A, Amsterdam",1012 JB,116,4,4.895989,52.373751
385000.0,"Amstelveenseweg 186 IIIV, Amsterdam",1075 XR,37,2,4.855832,52.352385
600000.0,"Poeldijkstraat 259, Amsterdam",1059 VL,90,3,4.844731,52.349856
725000.0,"Marnixkade 26 III, Amsterdam",1015 XP,87,4,4.881073,52.382434
295000.0,"Willem de Zwijgerlaan 334 c29, Amsterdam",1055 RD,47,2,4.860857,52.380834
875000.0,"Ter Haarstraat 21 E, Amsterdam",1053 LH,108,4,4.655161,52.376552
725000.0,"Funenpark 349, Amsterdam",1018 AK,101,4,4.931075,52.369038
549000.0,"Levantkade 170, Amsterdam",1019 BG,91,5,4.943456,52.376191
360000.0,"Willem de Zwijgerlaan 309 I, Amsterdam",1055 PZ,53,2,4.860817,52.380045
1400000.0,"Stadionweg 61 2, Amsterdam",1077 SC,153,4,4.875155,52.346664
595000.0,"Droogbak 5 B, Amsterdam",1013 GE,78,3,4.893924,52.379828
375000.0,"Van Ostadestraat 365 I, Amsterdam",1074 VW,45,2,4.90341,52.354369
495000.0,"Van Speijkstraat 175 2, Amsterdam",1057 GZ,80,4,4.859791,52.371205
825000.0,"Sarphatipark 136 H, Amsterdam",1073 EE,112,5,4.898909,52.353937
240000.0,"Nieuwevaart 10 4V, Amsterdam",1018 AA,26,1,4.913448,52.370666
300000.0,"Burgemeester Van de Pollstraat 18, Amsterdam",1064 PB,65,4,4.831964,52.371338
350000.0,"Jan van Schaffelaarplantsoen 29 A, Amsterdam",1061 DM,58,3,4.84314,52.378753
275000.0,"Tussen Meer 230, Amsterdam",1069 DW,84,4,4.790574,52.356342
600000.0,"Rapenburg 35 C, Amsterdam",1011 TV,83,2,4.908391,52.371373
480000.0,"Jacob van Lennepkade 265 C, Amsterdam",1054 ZT,60,2,4.85983,52.361813
1150000.0,"Stephensonstraat 1 D, Amsterdam",1097 BA,163,7,4.921657,52.351422
375000.0,"Sportstraat 6 1, Amsterdam",1076 TV,43,2,4.860276,52.347686
425000.0,"Tweede Jan van der Heijdenstraat 53 III, Amsterdam",1074 XP,49,3,4.901398,52.355807
485000.0,"Kinkerstraat 205 B, Amsterdam",1053 DS,69,3,4.866392,52.365536
425000.0,"Curaçaostraat 82 H, Amsterdam",1058 CA,58,3,4.852231,52.361321
560000.0,"Zandstraat 5 hs, Amsterdam",1011 HJ,80,2,4.898846,52.370303
730000.0,"Grevelingenstraat 4 hs, Amsterdam",1078 KN,89,3,4.88956,52.345979
225000.0,"Willem de Zwijgerlaan 334 E15, Amsterdam",1055 RD,32,1,4.860857,52.380834
895000.0,"Pieter de Hoochstraat 25 B +PP, Amsterdam",1071 ED,103,3,4.885645,52.35602
275000.0,"Pieter Calandlaan 231, Amsterdam",1068 ND,81,3,4.810853,52.354008
290000.0,"Dirk Bonsstraat 18 I, Amsterdam",1063 TZ,50,2,4.834901,52.378363
625000.0,"Tweede Jan Steenstraat 34 HS, Amsterdam",1073 VP,72,4,4.899724,52.355854
275000.0,"Oldengaarde 116, Amsterdam",1083 TL,31,2,4.883566,52.330963
215000.0,"Dickenslaan 79, Amsterdam",1102 XP,43,2,4.945155,52.324953
430000.0,"Oeverpad 482, Amsterdam",1068 PM,103,4,4.807703,52.363646
550000.0,"Buziaustraat 14, Amsterdam",1068 KN,160,6,4.811827,52.353554
269000.0,"Ruimzicht 130, Amsterdam",1068 CS,55,2,4.808183,52.361977
1325000.0,"Nieuwevaartweg, Amsterdam",1019 AL,162,4,4.95437552819149,52.3679823
400000.0,"Singel 57 3, Amsterdam",1012 VD,46,1,4.892211,52.376702
570000.0,"Nachtwachtlaan 167, Amsterdam",1058 EE,96,4,4.843132,52.360049
550000.0,"Nachtwachtlaan 501, Amsterdam",1058 ES,125,5,4.84351,52.363743
400000.0,"Achillesstraat 113 2, Amsterdam",1076 RA,53,3,4.864958,52.343986
350000.0,"Jacob van Lennepstraat 284 H, Amsterdam",1053 KD,41,2,4.863282,52.363713
225000.0,"Langswater 198, Amsterdam",1069 TS,60,3,4.790457,52.35459
1175000.0,"Geschutswerf 15, Amsterdam",1018 AW,164,2,4.92035,52.366858
375000.0,"Osdorpplein 62, Amsterdam",1068 EM,88,3,4.806525,52.359424
525000.0,"Retiefstraat 49 2, Amsterdam",1092 VX,76,2,4.922699,52.355605
545000.0,"Nieuwe Keizersgracht 452, Amsterdam",1018 VG,61,2,4.907725,52.365333
465000.0,"Leeuwendalersweg 636, Amsterdam",1061 BJ,94,4,4.838028,52.377317
600000.0,"Noordzijde 48, Amsterdam",1064 GV,135,6,4.820624,52.373918
1050000.0,"Nieuwe Keizersgracht 570 L, Amsterdam",1018 VG,63,3,4.90885,52.365524
375000.0,"Arènpalmstraat 24, Amsterdam",1104 DB,99,4,4.981355,52.320364
349500.0,"Oogststraat 81, Amsterdam",1097 ZS,51,3,4.941752,52.339554
450000.0,"IJburglaan 754, Amsterdam",1087 EM,96,3,4.993345,52.355933
1499000.0,"Baarsjesweg 313 H, Amsterdam",1058 AH,245,8,4.854662,52.358204
720000.0,"Winterjanpad 21, Amsterdam",1036 KN,138,5,4.902503,52.410538
385000.0,"J.M. den Uylstraat 4, Amsterdam",1067 WC,87,3,4.793277,52.381864
500000.0,"Amsteldijk 828, Amsterdam",1079 LM,84,3,4.913659,52.343221
245000.0,"Dirk Bonsstraat 22, Amsterdam",1063 VA,45,2,4.834844,52.378255
425000.0,"Haarlemmerweg 33 D, Amsterdam",1051 KN,74,3,4.878057,52.385387
450000.0,"Javakade 112, Amsterdam",1019 RV,64,2,4.930926,52.377783
250000.0,"Jisperveldstraat 427, Amsterdam",1024 AV,84,3,4.951827,52.399557
700000.0,"Erich Salomonstraat 629, Amsterdam",1087 JA,130,6,5.001384,52.354845
500000.0,"Tilanusstraat 334, Amsterdam",1091 MZ,62,3,4.914296,52.358996
375000.0,"Cornelis van Vollenhovenstraat 4 B, Amsterdam",1063 KS,101,3,4.819711,52.379837
,"Suikerplein 16, Amsterdam",1013 CK,81,3,4.880976,52.389623
375000.0,"Postjesweg 203, Amsterdam",1062 JN,80,4,4.840015,52.363904
525000.0,"Komijnstraat 24, Amsterdam",1104 HP,176,5,4.986145,52.316165
300000.0,"Johan Huizingalaan 260 II, Amsterdam",1065 JM,73,4,4.827023,52.354418
325000.0,"1e Kekerstraat 77 PP, Amsterdam",1104 VA,99,3,4.981149,52.314
735000.0,"Van Tuyll van Serooskerkenweg 86 H, Amsterdam",1076 JP,83,3,4.86109,52.344643
475000.0,"Brenner 24, Amsterdam",1060 NV,115,5,4.776722,52.351033
1200000.0,"Noordermarkt 32 A, Amsterdam",1015 MZ,105,4,4.886034,52.379546
685000.0,"Schotse Hooglanden 4, Amsterdam",1060 NM,183,6,4.7717,52.35337
375000.0,"Willem de Zwijgerlaan 115 II, Amsterdam",1056 JJ,51,3,4.862875,52.373735
525000.0,"Wolbrantskerkweg 66 E, Amsterdam",1069 DA,112,5,4.79733,52.356512
275000.0,"Marnixstraat 237 E, Amsterdam",1015 WE,23,1,4.877725,52.376041
875000.0,"Keizersgracht 444 C, Amsterdam",1016 GD,96,5,4.884002,52.367652
600000.0,"Jan van Zutphenstraat 103, Amsterdam",1069 RR,136,4,4.802149,52.350604
250000.0,"Antony Moddermanstraat 222 HS, Amsterdam",1063 NA,61,2,4.812509,52.383676
1425000.0,"Prins Hendrikkade 132 A, Amsterdam",1011 AR,257,4,4.905372,52.373727
550000.0,"Venetiëhof 101, Amsterdam",1019 NC,93,3,4.948159,52.377174
399000.0,"Lange Leidsedwarsstraat 103 1 B, Amsterdam",1017 NJ,40,2,4.886109,52.363042
300000.0,"Bilderdijkstraat 177 2A, Amsterdam",1053 KR,35,1,4.872597,52.366735
475000.0,"Talbotstraat 223, Amsterdam",1087 DM,90,3,4.996258,52.358696
325000.0,"Pieter Calandlaan 379, Amsterdam",1068 NJ,81,3,4.81015,52.353861
350000.0,"Nachtwachtlaan 345, Amsterdam",1058 EM,59,2,4.84399,52.362946
400000.0,"Crynssenstraat 74 2, Amsterdam",1058 XZ,51,2,4.85633,52.36355
1000000.0,"Reyer Anslostraat 17 H, Amsterdam",1054 KT,122,5,4.860517,52.358293
895000.0,"Doggerstraat 15, Amsterdam",1086 VG,184,6,4.986808,52.364679
375000.0,"Afrikanerplein 118, Amsterdam",1091 PW,57,2,4.91638,52.352165
199000.0,"Kanaalstraat 100 G, Amsterdam",1054 XL,21,1,4.862992,52.362176
500000.0,"Hoofdweg 947, Amsterdam",1055 SC,82,3,4.846047,52.37786
550000.0,"Overtoom 502 I, Amsterdam",1054 KJ,72,3,4.859628,52.359026
650000.0,"Blasiusstraat 50 II, Amsterdam",1091 CT,86,3,4.909361,52.356532
799000.0,"IJsselmeerstraat 52, Amsterdam",1024 ML,230,8,4.961381,52.389087
365000.0,"John Franklinstraat 38 3, Amsterdam",1056 TD,49,3,4.854277,52.371899
350000.0,"Jesse Owenshof 27 PP, Amsterdam",1034 WT,83,3,4.920989,52.403808
550000.0,"Insulindeweg 920, Amsterdam",1095 DX,102,3,4.945592,52.362164
350000.0,"Catharina Boudewijnshof 51, Amsterdam",1064 PE,103,4,4.809689,52.378
620000.0,"Retiefstraat 97 A, Amsterdam",1092 XB,86,4,4.92068,52.354968
685000.0,"Ouderkerkerdijk 42, Amsterdam",1096 CR,110,4,4.901539,52.333097
400000.0,"Schalk Burgerstraat 72, Amsterdam",1091 LM,58,3,4.920732,52.352847
450000.0,"Adrichemstraat 15, Amsterdam",1013 DR,73,3,4.877698,52.388468
420000.0,"Rupelmonde 10, Amsterdam",1081 GP,73,3,4.859128,52.327841
600000.0,"Commelinstraat 174, Amsterdam",1093 VD,83,4,4.925816,52.363614
310000.0,"J.M. den Uylstraat 76, Amsterdam",1067 WD,75,3,4.790104,52.381911
560000.0,"Kanaalstraat 204 H, Amsterdam",1054 XS,73,3,4.857873,52.360923
2650000.0,"Tweede Jan van der Heijdenstraat 13, Amsterdam",1073 VE,387,10,4.89935,52.355179
209000.0,"Ruiseveenpad 48, Amsterdam",1106 AM,59,2,4.975309,52.296957
545000.0,"Gerda Brautigamstraat 37, Amsterdam",1067 VM,110,4,4.789083,52.379219
1150000.0,"Eerste Helmersstraat 56 hs, Amsterdam",1054 DJ,144,6,4.875312,52.363634
550000.0,"Prinsengracht 1029 C, Amsterdam",1017 KP,66,2,4.895062,52.361956
300000.0,"Marcantilaan 225, Amsterdam",1051 NB,41,2,4.867456,52.375584
350000.0,"Kleine Beerstraat 31, Amsterdam",1033 CP,72,3,4.890612,52.414587
875000.0,"Jacob Groenplantsoen 7, Amsterdam",1035 MA,135,5,4.897048,52.417382
425000.0,"Hertspieghelweg 26 huis, Amsterdam",1055 KM,49,2,4.852468,52.380663
1550000.0,"Pieter Cornelisz. Hooftstraat 36 1 2 3, Amsterdam",1071 BZ,153,5,4.88242,52.360824
625000.0,"Amstel 186 HS, Amsterdam",1017 AG,74,3,4.89965,52.366621
375000.0,"Van Karnebeekstraat 7, Amsterdam",1067 RG,69,4,4.799561,52.37431
275000.0,"Leeuwenwerf 119, Amsterdam",1018 KB,40,2,4.921147,52.373395
345000.0,"Gibraltarstraat 105 hs, Amsterdam",1055 NM,50,2,4.849011,52.384683
1325000.0,"Weteringschans 122 A, Amsterdam",1017 XT,150,5,4.896605,52.359176
389000.0,"Korenbloemstraat 45, Amsterdam",1032 GT,61,1,4.913147,52.399212
300000.0,"Ploegstraat 187, Amsterdam",1097 WE,48,2,4.949415,52.340644
350000.0,"Burgemeester Cramergracht 60, Amsterdam",1064 AE,74,4,4.832383,52.373012
375000.0,"Reinier Claeszenstraat 74 3, Amsterdam",1056 WR,55,3,4.862201,52.373597
550000.0,"Potgieterstraat 21 hs, Amsterdam",1053 XP,74,2,4.874332,52.369651
425000.0,"Erasmusgracht 552 PP, Amsterdam",1061 BL,78,2,4.837463,52.376658
475000.0,"Kromme Leimuidenstraat 13 H, Amsterdam",1059 EL,60,3,4.850476,52.348586
399000.0,"Pretoriusstraat 22 1, Amsterdam",1092 GG,66,4,4.925631,52.356012
380000.0,"Willem Kromhoutstraat 17, Amsterdam",1067 RC,77,4,4.795007,52.375474
415000.0,"Hudsonstraat 55 hs, Amsterdam",1057 RX,51,2,4.853803,52.366082
935000.0,"Keizersgracht 515 R, Amsterdam",1017 DN,85,3,4.8887,52.365003
475000.0,"Kinkerstraat 215 D, Amsterdam",1053 DS,74,3,4.865792,52.365372
640000.0,"Prins Hendrikkade 156 3, Amsterdam",1011 AW,58,3,4.907085,52.372907
325000.0,"Gillis van Ledenberchstraat 3 HS, Amsterdam",1052 TV,44,2,4.873179,52.377933
265000.0,"Dalsteindreef 270, Amsterdam",1102 WZ,58,3,4.946436,52.326171
600000.0,"Kleefkruidstraat 30, Amsterdam",1104 HX,159,6,4.982447,52.315883
430000.0,"Warmondstraat 176 2, Amsterdam",1058 LB,58,3,4.849307,52.35303
395000.0,"Sassenheimstraat 30 1, Amsterdam",1059 BH,56,2,4.848779,52.348138
550000.0,"Cor van Weelehof 3, Amsterdam",1087 GL,107,4,4.997979,52.354825
325000.0,"Robert Fruinlaan 16 III, Amsterdam",1065 XW,70,4,4.830209,52.363691
1250000.0,"Wiborgeiland 146 PP, Amsterdam",1014 ZC,131,4,4.878356,52.394101
645000.0,"Prins Hendrikkade 156 1, Amsterdam",1011 AW,58,3,4.907085,52.372907
1099000.0,"Cliostraat 35 1, Amsterdam",1077 KC,165,5,4.875455,52.347348
575000.0,"Amstel 124 B, Amsterdam",1017 AD,70,2,4.897782,52.366928
795000.0,"Prinsengracht 460 A, Amsterdam",1017 KE,102,3,4.884579,52.364626
250000.0,"Overleg 84, Amsterdam",1068 RL,57,2,4.803968,52.355143
735000.0,"Cliostraat 61 I, Amsterdam",1077 KE,104,3,4.87459,52.347318
900000.0,"Osdorperweg 94, Amsterdam",1066 EM,187,6,4.797164,52.343623
275000.0,"Het Breed 605, Amsterdam",1025 HW,63,2,4.93924,52.396536
575000.0,"Rietlandpark 103, Amsterdam",1019 DS,107,3,4.935891,52.37338
525000.0,"Eerste Looiersdwarsstraat 10 B, Amsterdam",1016 VM,59,4,4.880977,52.368961
1090000.0,"Van Hilligaertstraat 47, Amsterdam",1072 JX,149,3,4.890751,52.349678
325000.0,"Loodskotterhof 4, Amsterdam",1034 CN,80,4,4.909069,52.405451
750000.0,"Willy Mullenskade 15, Amsterdam",1087 KH,158,6,5.000973,52.353136
475000.0,"Praterlaan 8, Amsterdam",1098 WR,96,4,4.952066,52.344595
415000.0,"Ruyschstraat 335, Amsterdam",1091 MR,61,3,4.914021,52.358618
325000.0,"Bijlmerdreef 514, Amsterdam",1102 AC,98,3,4.956816,52.31741
899000.0,"Uilengouw 2, Amsterdam",1027 EZ,258,1,4.967897,52.410672
300000.0,"Elpermeer 250, Amsterdam",1025 AP,85,4,4.947646,52.402266
350000.0,"Burgemeester Cramergracht 91, Amsterdam",1064 AH,75,3,4.832782,52.373345
950000.0,"Milletstraat 43 2, Amsterdam",1077 ZC,148,7,4.869544,52.345822
525000.0,"Brederodestraat 42 4, Amsterdam",1054 MV,63,3,4.865952,52.361768
600000.0,"Ringvaartdijk 80, Amsterdam",1066 DJ,145,4,4.799931,52.334488
450000.0,"Hellingstraat 52, Amsterdam",1033 WW,59,2,4.891511,52.401727
275000.0,"Het Hoogt 215, Amsterdam",1025 GW,57,2,4.937616,52.397321
300000.0,"Schalk Burgerstraat 10, Amsterdam",1091 LJ,46,3,4.920288,52.353214
575000.0,"Rijnstraat 238 1, Amsterdam",1079 HV,82,4,4.906854,52.341296
298000.0,"Mezenstraat 58, Amsterdam",1021 VL,43,2,4.920012,52.386342
375000.0,"Egidiusstraat 42 3, Amsterdam",1055 GW,61,3,4.851777,52.379483
369000.0,"Formosastraat 61, Amsterdam",1094 SW,56,2,4.934903,52.360041
625000.0,"Westlandgracht 189 IV, Amsterdam",1059 TL,77,4,4.846204,52.349933
1250000.0,"Vondelstraat 70 II, Amsterdam",1054 GG,157,4,4.876006,52.362028
300000.0,"Lootsstraat 24 II, Amsterdam",1053 NX,38,2,4.86116,52.363527
685000.0,"Van Oldenbarneveldtstraat 96 A3, Amsterdam",1052 KH,94,3,4.873591,52.374016
575000.0,"Cornelis Troostplein 2 2, Amsterdam",1072 JK,71,3,4.891161,52.351082
565000.0,"Willem Mollhof 3, Amsterdam",1065 AH,94,3,4.825673,52.361323
225000.0,"Bernard Shawsingel 336, Amsterdam",1102 VG,60,2,4.946485,52.319485
469000.0,"Singel 32 G, Amsterdam",1015 AA,50,3,4.893043,52.37844
3500000.0,"Sophialaan 45, Amsterdam",1075 BM,374,7,4.857608,52.352366
595000.0,"Nachtwachtlaan 164, Amsterdam",1058 EE,100,3,4.84313,52.359998
650000.0,"Spadinalaan 53, Amsterdam",1031 KB,90,3,4.900901,52.386904
350000.0,"Balboastraat 52 II, Amsterdam",1057 VX,50,3,4.853093,52.368955
440000.0,"Antillenstraat 28 2, Amsterdam",1058 HB,59,3,4.85128,52.359788
900000.0,"Schouwstraat 11, Amsterdam",1023 CS,120,5,4.948739,52.386865
675000.0,"Amsteldijk 64, Amsterdam",1074 HZ,95,3,4.906809,52.353645
1575000.0,"Noorder IJdijk 63, Amsterdam",1023 NT,138,4,4.961457,52.38257
1695000.0,"Broekergouw 4, Amsterdam",1027 AH,467,14,4.97083,52.412038
750000.0,"ms. van Riemsdijkweg 266, Amsterdam",1033 RD,111,4,4.892182,52.401519
325000.0,"Alkmaarstraat 277, Amsterdam",1024 TR,77,4,4.947655,52.395417
1750000.0,"Prinsengracht 483 A, Amsterdam",1016 HP,212,4,4.883097,52.369689
500000.0,"Oostelijke Handelskade 1155, Amsterdam",1019 DN,93,3,4.938017,52.373868
365000.0,"Van Boetzelaerstraat 73 II, Amsterdam",1051 EA,47,2,4.871178,52.382031
675000.0,"Orteliusstraat 279 3, Amsterdam",1056 NV,109,3,4.8479,52.372221
995000.0,"Keizersgracht 343 F, Amsterdam",1016 EH,97,2,4.884982,52.369202
510000.0,"Buiksloterbreek 35, Amsterdam",1034 XC,91,3,4.909786,52.401616
359000.0,"Schellingwouderdijk 352 e, Amsterdam",1023 NM,69,4,4.965813,52.381514
295000.0,"Nicolaas Anslijnstraat 116, Amsterdam",1068 WT,79,3,4.807977,52.357443
425000.0,"Erasmusgracht 5 2, Amsterdam",1056 BB,62,3,4.848229,52.375341
575000.0,"Funenpark 316, Amsterdam",1018 AK,72,2,4.931839,52.369014
469000.0,"Bombraak 4, Amsterdam",1035 JR,109,3,4.891949,52.423805
1625000.0,"Keizersgracht 171 F, Amsterdam",1016 DP,199,6,4.88583,52.374742
700000.0,"Rijswijkstraat 32, Amsterdam",1062 EE,140,5,4.837658,52.350226
350000.0,"Vegastraat 97, Amsterdam",1033 HR,65,4,4.885364,52.412066
495000.0,"Waterkeringweg 49, Amsterdam",1051 NX,74,3,4.867549,52.384604
749000.0,"Cas Oorthuyskade 47, Amsterdam",1087 DP,150,5,4.90981909560303,52.3686532505277
300000.0,"Bakkumstraat 4, Amsterdam",1024 VX,78,4,4.954641,52.394724
325000.0,"Van Bossestraat 32 I, Amsterdam",1051 JZ,35,2,4.868498,52.381319
725000.0,"Prinsengracht 201 E, Amsterdam",1015 DT,95,3,4.886006,52.377377
